City_ID,City,Lat,Lng,Max Temp,Humidity,Cloudiness,Wind Speed,Country,Date
0,avarua,-21.2078,-159.775,27.03,74,75,5.14,CK,1733182209
1,jamestown,42.097,-79.2353,-2.2,96,100,5.66,US,1733181951
2,albany,42.6001,-73.9662,-0.64,56,41,2.3,US,1733182141
3,guerrero negro,27.9769,-114.0611,19.09,62,57,4.64,MX,1733182216
4,grytviken,-54.2811,-36.5092,1.59,99,100,3.35,GS,1733182218
5,minas de marcona,-15.2119,-75.1103,15.46,86,84,6.47,PE,1733182220
6,tiksi,71.6872,128.8694,-23.08,99,25,3.75,RU,1733182222
7,moyale,3.5167,39.0584,19.2,49,5,3.34,KE,1733182225
8,belyy yar,53.6039,91.3903,-3.06,74,0,5.0,RU,1733182227
9,san antonio de pale,-1.4014,5.6325,25.99,84,94,3.59,GQ,1733182229
10,waitangi,-43.9535,-176.5597,14.03,91,96,5.03,NZ,1733182231
11,sitka,57.0531,-135.33,8.94,87,100,6.69,US,1733182233
12,ust-nera,64.5667,143.2,-21.3,98,89,0.8,RU,1733182237
13,sisimiut,66.9395,-53.6735,-6.16,78,100,2.84,GL,1733182242
14,hermanus,-34.4187,19.2345,18.78,85,99,5.65,ZA,1733182244
15,port mathurin,-19.6833,63.4167,24.41,78,1,7.09,MU,1733182246
16,adamstown,-25.066,-130.1015,23.46,80,100,5.95,PN,1733182248
17,klyuchi,52.2667,79.1667,-12.87,97,50,2.73,RU,1733182250
18,atafu village,-8.5421,-172.5159,27.69,79,24,5.69,TK,1733182252
19,dhuusamarreeb,5.535,46.3861,22.24,77,93,5.82,SO,1733182254
20,kodiak,57.79,-152.4072,2.73,100,100,0.0,US,1733182257
21,port alfred,-33.5906,26.891,16.77,92,84,0.45,ZA,1733182259
22,talakan,50.3167,130.3667,-22.02,97,100,1.12,RU,1733182261
23,mendoza,-32.8908,-68.8272,24.74,19,0,2.57,AR,1733182021
24,mboursou lere,9.7639,14.1539,21.29,26,66,2.62,TD,1733182265
25,hilo,19.7297,-155.09,26.73,79,100,4.12,US,1733182267
26,edinburgh of the seven seas,-37.0676,-12.3116,15.35,88,25,11.94,SH,1733182269
27,thompson,55.7435,-97.8558,-24.91,77,40,0.0,CA,1733182271
28,puerto deseado,-47.7503,-65.8938,10.44,62,100,11.8,AR,1733182273
29,selfoss,63.9331,-20.9971,1.69,91,100,5.48,IS,1733182276
30,tolanaro,-25.0319,46.9987,22.25,90,0,3.62,MG,1733182278
31,margaret river,-33.95,115.0667,18.76,70,98,7.37,AU,1733182280
32,menongue,-14.6585,17.691,19.28,67,37,2.07,AO,1733182282
33,iqaluit,63.7506,-68.5145,-26.84,68,75,5.14,CA,1733182002
34,port-aux-francais,-49.35,70.2167,6.48,96,100,6.84,TF,1733182286
35,punta arenas,-53.15,-70.9167,9.06,71,75,12.35,CL,1733182180
36,invercargill,-46.4,168.35,24.45,65,83,4.02,NZ,1733182291
37,tura,25.5198,90.2201,15.0,85,1,1.47,IN,1733182293
38,puerto natales,-51.7236,-72.4875,11.25,54,40,7.2,CL,1733182223
39,argo,37.6333,22.7333,10.92,91,100,1.64,GR,1733182297
40,west island,-12.1568,96.8225,25.99,94,100,0.0,CC,1733182299
41,saudarkrokur,65.7461,-19.6394,-0.52,76,100,7.56,IS,1733182302
42,petukhovo,55.0692,67.9019,-9.32,93,61,4.69,RU,1733182304
43,kapa'a,22.0752,-159.319,28.99,68,75,6.17,US,1733182306
44,midvagur,62.0511,-7.1939,-1.54,69,100,2.06,FO,1733182308
45,coshocton,40.272,-81.8596,-1.76,69,65,2.13,US,1733182310
46,constantia,44.1833,28.65,3.38,73,80,4.86,RO,1733182313
47,vila velha,-20.3297,-40.2925,27.97,78,0,5.36,BR,1733182131
48,queenstown,-31.8976,26.8753,13.73,93,50,1.31,ZA,1733182144
49,zhongxiang,31.1661,112.5831,9.87,51,83,7.37,CN,1733182319
50,axim,4.8699,-2.2405,26.05,83,3,2.87,GH,1733182321
51,intendente alvear,-35.2338,-63.592,16.22,20,0,4.15,AR,1733182323
52,lerwick,60.1545,-1.1494,2.13,63,97,6.61,GB,1733182325
53,hartford city,40.4511,-85.37,-4.97,78,100,1.79,US,1733182327
54,anar darah,32.7587,61.654,2.28,73,0,2.79,AF,1733182330
55,papatowai,-46.5619,169.4708,23.06,54,94,4.57,NZ,1733182332
56,altay,47.8667,88.1167,-10.0,76,95,3.09,CN,1733182334
57,longyearbyen,78.2186,15.6401,-12.09,56,20,5.14,SJ,1733182336
58,uturoa,-16.7333,-151.4333,27.6,75,80,5.66,PF,1733182338
59,la passe,45.5549,-0.8967,10.28,79,56,3.07,FR,1733182340
60,nemuro,43.3236,145.575,9.66,88,100,8.77,JP,1733182342
61,santa ana de yacuma,-13.75,-65.4333,30.97,70,75,3.09,BO,1733182344
62,ilulissat,69.2167,-51.1,-9.99,67,20,2.57,GL,1733182347
63,blackmans bay,-43.0167,147.3167,17.07,95,100,2.63,AU,1733182349
64,sinabang,2.4803,96.3801,24.74,81,100,1.62,ID,1733182351
65,malvan,16.0667,73.4667,25.49,84,100,3.17,IN,1733182353
66,at taj,24.2049,23.2857,11.5,48,4,3.63,LY,1733182355
67,wailua homesteads,22.0669,-159.378,28.25,69,75,6.17,US,1733182357
68,bengkulu,-3.8004,102.2655,23.39,95,100,3.7,ID,1733182359
69,kolonia,50.9333,6.95,8.36,88,75,2.57,DE,1733182362
70,fisterra,42.9049,-9.2629,12.84,78,80,4.92,ES,1733182364
71,grovetown,33.4504,-82.1982,6.43,55,0,0.45,US,1733182194
72,ukiah,39.1502,-123.2078,19.24,56,0,0.0,US,1733182368
73,vepagunta,17.7784,83.2158,22.98,88,99,1.92,IN,1733182370
74,happy valley-goose bay,53.3168,-60.3315,-2.83,74,75,2.06,CA,1733182174
75,newman,37.3138,-121.0208,17.81,56,3,0.89,US,1733182374
76,cabedelo,-6.9811,-34.8339,27.37,80,14,6.31,BR,1733182377
77,abdulino,53.7,53.6667,-1.61,95,98,3.06,RU,1733182379
78,port lincoln,-34.7333,135.8667,18.56,59,27,6.28,AU,1733182381
79,luderitz,-26.6481,15.1594,19.39,68,64,9.62,NA,1733182383
80,callao,-12.0667,-77.15,23.73,83,75,5.14,PE,1733182180
81,konarka,19.9,86.1167,21.27,76,92,3.73,IN,1733182387
82,rongelap,11.1635,166.8941,28.01,76,54,10.14,MH,1733182390
83,nadym,65.5333,72.5167,-11.64,91,71,7.9,RU,1733182392
84,ribeira grande,38.5167,-28.7,18.21,77,96,3.58,PT,1733182394
85,sofifi,0.7349,127.576,27.11,82,99,2.12,ID,1733182398
86,kone,-21.0595,164.8658,32.47,40,0,1.2,NC,1733182400
87,vizinga,61.0749,50.1031,0.9,87,99,5.23,RU,1733182402
88,kristiansund,63.1115,7.732,0.07,86,100,4.12,NO,1733182404
89,hwange,-18.3693,26.5019,22.57,37,0,0.9,ZW,1733182407
90,polyarnyy,69.1989,33.4478,-1.41,89,100,5.8,RU,1733182409
91,ola,59.5833,151.2833,-7.72,81,79,4.3,RU,1733182411
92,sinjai,-5.1241,120.253,24.8,90,100,1.38,ID,1733182413
93,yellowknife,62.456,-114.3525,-18.71,84,100,6.17,CA,1733182148
94,pierre,44.3683,-100.351,-8.49,73,100,3.6,US,1733182417
95,mount isa,-20.7333,139.5,28.87,70,20,3.6,AU,1733182419
96,lihue,21.9789,-159.3672,28.58,65,75,6.17,US,1733182417
97,lobito,-12.3481,13.5456,24.25,85,58,1.52,AO,1733182424
98,hithadhoo,-0.6,73.0833,27.56,78,100,8.63,MV,1733182426
99,gadzhiyevo,69.2551,33.3362,-1.4,90,100,5.53,RU,1733182428
100,kashgar,39.4547,75.9797,0.56,59,40,1.0,CN,1733182430
101,santyoku,37.4406,129.1708,5.71,50,83,3.67,KR,1733182432
102,springbok,-29.6643,17.8865,13.91,86,1,1.79,ZA,1733182434
103,santa rita,-7.1139,-34.9781,27.37,78,75,5.14,BR,1733182436
104,qaqortoq,60.7167,-46.0333,-3.48,87,99,3.17,GL,1733182438
105,vila franca do campo,37.7167,-25.4333,18.27,99,97,0.71,PT,1733182441
106,arvayheer,46.2639,102.775,-9.14,42,98,1.03,MN,1733182443
107,nguigmi,14.2495,13.1092,18.69,28,36,5.46,NE,1733182445
108,saint-joseph,-21.3667,55.6167,23.21,80,31,4.26,RE,1733182447
109,stanley,54.868,-1.6985,2.01,96,75,2.06,GB,1733182449
110,bethel,41.3712,-73.414,0.52,67,47,0.45,US,1733182197
111,balnearia,-31.0088,-62.6673,19.28,40,0,3.58,AR,1733182453
112,narvik,68.4384,17.4272,-3.44,95,99,4.49,NO,1733182455
113,saldanha,-33.0117,17.9442,19.03,93,90,3.02,ZA,1733182458
114,debre werk',10.6667,38.1667,11.06,60,14,0.44,ET,1733182460
115,sztum,53.9208,19.0307,4.63,77,100,5.38,PL,1733182462
116,portsmouth,50.799,-1.0913,8.31,72,94,3.13,GB,1733182364
117,arraial do cabo,-22.9661,-42.0278,24.86,90,93,8.25,BR,1733182336
118,punta del este,-34.9667,-54.95,16.6,76,40,5.36,UY,1733182468
119,quellon,-43.1167,-73.6167,9.5,72,30,5.79,CL,1733182470
120,saipan,15.1355,145.701,29.25,84,75,5.36,MP,1733182472
121,keflavik,64.0049,-22.5624,4.24,81,75,9.77,IS,1733182475
122,hinton,53.4001,-117.5857,0.92,88,100,2.68,CA,1733182477
123,twon-brass,4.3151,6.2418,27.55,76,6,5.76,NG,1733182479
124,dolinsk,47.35,142.8,1.54,81,100,5.41,RU,1733182481
125,castillos,-34.1667,-53.8333,12.74,70,32,1.36,UY,1733182485
126,port elizabeth,-33.918,25.5701,17.4,88,0,3.09,ZA,1733182487
127,puerto ayora,-0.7393,-90.3518,22.1,83,77,5.33,EC,1733182492
128,kingston,17.997,-76.7936,29.53,74,20,1.54,JM,1733182436
129,torghay,49.6339,63.4981,-3.19,85,77,3.14,KZ,1733182496
130,sao jose de ribamar,-2.5619,-44.0542,27.21,76,33,6.0,BR,1733182498
131,singaraja,-8.112,115.0882,28.23,77,97,2.68,ID,1733182500
132,san patricio,28.017,-97.5169,19.97,60,100,5.6,US,1733182502
133,aykhal,66.0,111.5,-27.0,84,21,3.92,RU,1733182504
134,lorengau,-2.0226,147.2712,30.25,64,78,1.08,PG,1733182507
135,bilibino,68.0546,166.4372,-18.56,99,100,0.34,RU,1733182509
136,taza,34.25,-3.75,15.54,51,66,0.56,MA,1733182511
137,kulhudhuffushi,6.6221,73.07,27.93,74,88,7.28,MV,1733182513
138,praia da vitoria,38.7333,-27.0667,18.14,94,75,1.52,PT,1733182515
139,utrik,11.2278,169.8474,27.87,78,53,11.32,MH,1733182517
140,remire-montjoly,4.9167,-52.2667,25.02,94,75,0.0,GF,1733182519
141,whitehorse,60.7161,-135.0538,-15.5,77,100,1.03,CA,1733182521
142,hawaiian paradise park,19.5933,-154.9731,26.61,77,100,4.12,US,1733182524
143,awjilah,29.1081,21.2869,13.97,48,69,4.43,LY,1733182526
144,ushuaia,-54.8,-68.3,8.81,71,40,9.26,AR,1733182315
145,nanning,22.8167,108.3167,18.25,75,95,3.34,CN,1733182241
146,aasiaat,68.7098,-52.8699,-14.35,89,100,1.54,GL,1733182532
147,ruteng,-8.6136,120.4721,22.01,89,98,0.34,ID,1733182534
148,bel ombre,-4.6167,55.4167,25.91,83,75,1.03,SC,1733182536
149,puerto baquerizo moreno,-0.9,-89.6,21.55,84,44,4.72,EC,1733182539
150,grand falls-windsor,48.9332,-55.6649,0.28,83,73,1.36,CA,1733182541
151,okahao,-17.885,15.0667,25.3,22,1,1.93,NA,1733182543
152,winnemucca,40.973,-117.7357,8.03,42,0,1.54,US,1733182394
153,cannonvale,-20.2833,148.7,26.66,79,82,3.63,AU,1733182547
154,isafjordur,66.0755,-23.124,-2.24,89,100,10.47,IS,1733182549
155,tadine,-21.55,167.8833,27.12,68,32,6.27,NC,1733182551
156,new norfolk,-42.7826,147.0587,17.73,98,100,0.66,AU,1733182553
157,east london,-33.0153,27.9116,18.21,85,81,2.52,ZA,1733182556
158,airway heights,47.6446,-117.5933,-0.93,86,100,0.0,US,1733182409
159,cuite,-6.4836,-36.1536,21.64,86,79,6.36,BR,1733182560
160,ormara,25.2088,64.6357,23.89,65,28,4.36,PK,1733182562
161,nuuk,64.1835,-51.7216,-0.66,69,20,5.14,GL,1733182564
162,brevard,28.292,-80.7492,14.45,67,4,4.02,US,1733182566
163,lensk,60.7253,114.9278,-27.2,97,97,1.52,RU,1733182569
164,fort bragg,35.139,-79.006,4.34,50,0,1.54,US,1733182571
165,yuzhno-kurilsk,44.0306,145.8556,8.48,92,100,7.11,RU,1733182573
166,salinas de hidalgo,22.6333,-101.7167,15.91,44,4,7.49,MX,1733182575
167,yurimaguas,-5.9,-76.0833,29.93,51,17,2.43,PE,1733182577
168,chipinge,-20.1883,32.6236,16.79,46,0,0.92,ZW,1733182579
169,antalaha,-14.9003,50.2788,23.0,91,96,1.79,MG,1733182581
170,ajaccio,42.0,8.9167,5.55,87,0,3.09,FR,1733182583
171,nishinoomote,30.7333,131.0,16.31,72,20,5.14,JP,1733182586
172,nyurba,63.2842,118.3319,-28.74,96,99,2.03,RU,1733182588
173,kismayo,-0.3582,42.5454,26.23,75,10,5.43,SO,1733182590
174,peace river,56.2501,-117.286,-4.83,93,100,7.2,CA,1733182316
175,mujiayingzi,42.1167,118.7833,-8.26,36,2,3.74,CN,1733182594
176,saint anthony,45.0205,-93.218,-5.97,81,100,4.12,US,1733182596
177,charters towers,-20.1,146.2667,27.79,65,97,5.05,AU,1733182598
178,pangoa,-12.1167,-73.0,22.19,97,100,1.6,PE,1733182600
179,lazaro cardenas,17.9583,-102.2,26.49,74,2,2.28,MX,1733182501
180,rio grande,-32.035,-52.0986,18.24,74,2,6.97,BR,1733182605
181,nkove,-7.95,30.85,21.11,85,100,1.07,TZ,1733182607
182,awka,6.2101,7.0741,23.06,75,68,1.88,NG,1733182609
183,samana,19.2056,-69.3369,24.19,92,2,1.87,DO,1733182611
184,mbekenyera,-10.0,38.9833,21.82,92,38,1.2,TZ,1733182613
185,mount gambier,-37.8333,140.7667,18.83,70,74,5.78,AU,1733182615
186,ust-tsilma,65.441,52.1498,2.76,99,100,5.39,RU,1733182618
187,al lagowa,11.4,29.1333,20.45,20,1,3.76,SD,1733182620
188,kudahuvadhoo,2.6708,72.8944,27.96,75,99,8.29,MV,1733182622
189,kirkwall,58.9848,-2.9587,3.03,60,100,3.6,GB,1733182624
190,buka,40.8108,69.1986,3.53,70,46,1.55,UZ,1733182626
191,porvoo,60.3923,25.6651,5.19,96,100,5.91,FI,1733182628
192,kangiwa,12.5521,3.8187,22.19,16,9,4.5,NG,1733182630
193,flying fish cove,-10.4217,105.6791,27.8,77,85,3.64,CX,1733182632
194,iron river,46.0927,-88.6423,-6.15,97,87,2.44,US,1733182635
195,egilsstadir,65.2653,-14.3948,-2.05,69,0,7.2,IS,1733182637
196,chonchi,-42.6128,-73.8092,9.15,71,50,2.43,CL,1733182639
197,alice springs,-23.7,133.8833,29.75,54,0,5.66,AU,1733182641
198,yamada,39.4667,141.95,10.33,72,38,2.55,JP,1733182643
199,novoishimskiy,53.1981,66.7694,-11.08,98,82,3.62,KZ,1733182645
200,la'ie,21.6477,-157.9253,28.95,65,90,1.34,US,1733182649
201,madimba,-10.4,40.3333,24.77,85,14,0.58,TZ,1733182652
202,petropavlovsk-kamchatsky,53.0452,158.6483,2.33,65,75,1.0,RU,1733182654
203,viseu,40.661,-7.9097,8.81,96,40,0.22,PT,1733182656
204,olonkinbyen,70.9221,-8.7187,-9.32,50,100,3.46,SJ,1733182658
205,quillacollo,-17.4,-66.2833,19.04,76,75,2.57,BO,1733182660
206,kainantu,-6.2887,145.8655,22.57,77,66,0.87,PG,1733182662
207,tromso,69.6496,18.957,-1.99,74,75,7.72,NO,1733182624
208,north bend,43.4065,-124.2243,11.2,71,0,2.06,US,1733182667
209,santa luzia,-19.7697,-43.8514,24.87,81,20,0.0,BR,1733182669
210,alofi,-19.0595,-169.9187,25.94,94,100,2.06,NU,1733182671
211,cidreira,-30.1811,-50.2056,19.53,79,67,3.01,BR,1733182676
212,cascais,38.6979,-9.4215,15.03,79,55,3.58,PT,1733182678
213,vinita,36.6387,-95.1541,2.23,56,3,0.45,US,1733182680
214,pisco,-13.7,-76.2167,22.03,78,0,5.14,PE,1733182683
215,tazovsky,67.4667,78.7,-17.33,94,84,4.32,RU,1733182685
216,okha,53.5739,142.9478,-0.88,84,100,10.32,RU,1733182687
217,fortuna,40.5982,-124.1573,16.63,67,0,2.06,US,1733182689
218,vallenar,-28.5708,-70.7581,21.66,35,0,2.15,CL,1733182691
219,gulf shores,30.246,-87.7008,13.33,62,0,0.0,US,1733182693
220,coquimbo,-29.9533,-71.3436,16.85,69,0,5.66,CL,1733182696
221,crane,31.3974,-102.3501,13.14,72,100,4.42,US,1733182698
222,kerikeri,-35.2268,173.9474,20.94,53,90,3.07,NZ,1733182700
223,santander,43.4647,-3.8044,12.48,91,100,2.68,ES,1733182450
224,hasaki,35.7333,140.8333,14.43,64,0,3.19,JP,1733182704
225,swan hill,-35.3378,143.5544,27.78,59,37,7.68,AU,1733182706
226,shuangcheng,45.35,126.2833,-15.88,84,11,3.97,CN,1733182708
227,portland,45.5234,-122.6762,7.97,67,20,4.63,US,1733182623
228,fray bentos,-33.1325,-58.2956,18.74,60,0,3.67,UY,1733182715
229,peniche,39.3558,-9.3811,15.11,82,96,6.57,PT,1733182717
230,haiku-pauwela,20.9219,-156.3051,28.01,61,20,7.6,US,1733182719
231,ostrov,57.3439,28.3537,0.92,92,84,4.94,RU,1733182721
232,huilong,31.8111,121.655,11.55,73,8,4.59,CN,1733182723
233,la ronge,55.1001,-105.2842,-13.86,85,100,5.14,CA,1733182725
234,turuntayevo,52.2,107.6167,-21.39,95,5,0.22,RU,1733182728
235,gobabis,-22.45,18.9667,22.38,25,33,1.19,NA,1733182730
236,murashi,59.3999,48.9615,0.98,92,98,4.51,RU,1733182732
237,artova,40.1158,36.3001,-9.06,74,0,3.07,TR,1733182736
238,weno,7.4515,151.8468,28.63,79,48,3.7,FM,1733182738
239,tasqala,51.1167,50.3167,-0.65,81,98,3.23,KZ,1733182740
240,hurricane,37.1753,-113.2899,15.26,24,6,1.09,US,1733182743
241,illizi,26.4833,8.4667,14.47,26,83,2.47,DZ,1733182745
242,kargil,34.5667,76.1,-8.12,60,49,1.13,IN,1733182747
243,muncar,-8.4333,114.3333,27.68,76,93,2.17,ID,1733182749
244,valle de la pascua,9.2155,-66.0073,27.91,65,100,3.38,VE,1733182751
245,orchard homes,46.8633,-114.0484,3.29,67,21,0.89,US,1733182754
246,stonehaven,56.9637,-2.2118,1.29,82,49,2.85,GB,1733182756
247,mar del plata,-38.0023,-57.5575,11.01,82,40,5.14,AR,1733182624
248,papao,-17.75,-149.55,30.82,73,93,5.5,PF,1733182760
249,broome,42.2506,-75.833,-1.79,74,100,2.06,US,1733182764
250,usinsk,65.9939,57.5281,1.7,100,100,9.8,RU,1733182766
251,cockburn town,21.4612,-71.1419,27.12,72,99,5.25,TC,1733182471
252,lebu,-37.6167,-73.65,12.37,77,1,10.46,CL,1733182771
253,georgetown,5.4112,100.3354,26.96,87,20,2.06,MY,1733182773
254,altamont,42.2068,-121.7372,7.91,66,0,0.45,US,1733182775
255,st. john's,47.5649,-52.7093,4.98,92,100,2.57,CA,1733182763
256,harper,4.375,-7.7169,26.01,82,0,2.61,LR,1733182779
257,tenenkou,14.4572,-4.9169,22.11,14,38,4.31,ML,1733182781
258,maintirano,-18.0667,44.0167,26.96,74,76,2.01,MG,1733182783
259,talnakh,69.4865,88.3972,-13.47,92,100,5.51,RU,1733182786
260,quatre cocos,-20.2078,57.7625,23.06,77,14,4.05,MU,1733182788
261,marka,1.7159,44.7717,25.08,76,46,6.11,SO,1733182790
262,madaoua,14.073,5.96,18.52,20,33,4.74,NE,1733182792
263,souillac,-20.5167,57.5167,23.21,83,40,2.06,MU,1733182794
264,college,64.8569,-147.8028,-21.03,77,20,0.0,US,1733182796
265,greymouth,-42.4667,171.2,16.35,98,100,6.08,NZ,1733182798
266,al jubayl,27.0112,49.6583,18.73,54,0,4.97,SA,1733182800
267,essaouira,31.5125,-9.77,17.72,45,11,3.09,MA,1733182803
268,iquique,-20.2208,-70.1431,18.15,81,61,0.15,CL,1733182586
269,al qusiyah,27.4402,30.8184,14.18,60,16,4.56,EG,1733182807
270,nurabad,34.0734,47.9725,-0.04,47,74,1.21,IR,1733182809
271,lebanon,36.2081,-86.2911,1.03,73,75,5.66,US,1733182813
272,anadyr,64.75,177.4833,-14.72,85,0,4.0,RU,1733182815
273,demba,-5.51,22.2667,19.62,99,98,0.31,CD,1733182818
274,bredasdorp,-34.5322,20.0403,19.53,78,93,5.58,ZA,1733182822
275,badger,64.8,-147.5333,-19.86,77,20,0.0,US,1733182824
276,ulaangom,49.9811,92.0667,-12.82,84,94,2.27,MN,1733182826
277,ajaigarh,24.9,80.2667,14.27,54,13,0.23,IN,1733182828
278,plouzane,48.3833,-4.6167,9.03,76,100,2.57,FR,1733182831
279,baramati,18.15,74.5833,22.55,78,99,2.91,IN,1733182833
280,bugiri,0.5714,33.7417,19.53,77,91,0.82,UG,1733182835
281,riviera beach,26.7753,-80.0581,18.02,70,20,5.66,US,1733182837
282,kibre mengist,5.8833,38.9833,10.36,82,14,1.41,ET,1733182839
283,carnarvon,-24.8667,113.6333,21.97,63,12,5.7,AU,1733182842
284,clewiston,26.7542,-80.9337,14.44,55,0,6.27,US,1733182842
285,afaahiti,-17.75,-149.2833,26.03,80,92,5.45,PF,1733182846
286,palmerston,-12.486,130.9833,24.99,94,75,2.57,AU,1733182848
287,lae,-6.7221,146.9847,29.3,63,78,2.37,PG,1733182850
288,hunchun,42.8675,130.3581,-5.0,28,1,4.42,CN,1733182852
289,collie,-33.3667,116.15,18.42,69,62,4.99,AU,1733182854
290,lobujya,27.95,86.8167,-12.07,20,0,1.66,NP,1733182856
291,naracoorte,-36.9579,140.7383,20.34,66,99,6.93,AU,1733182859
292,senanga,-16.1167,23.2667,22.32,23,0,3.73,ZM,1733182861
293,ta`u,-14.2336,-169.5144,27.89,79,38,7.17,AS,1733182863
294,nowshahr,36.649,51.496,6.97,87,20,1.03,IR,1733182865
295,peterhead,57.5058,-1.7981,4.53,59,99,5.23,GB,1733182867
296,manismata,-2.4667,111.0333,24.48,96,100,1.04,ID,1733182869
297,okeho,8.0333,3.35,23.28,40,1,0.8,NG,1733182871
298,benguela,-12.5763,13.4055,24.1,83,35,1.38,AO,1733182873
299,extrema,-22.8547,-46.3183,20.9,96,100,1.76,BR,1733182876
300,scarborough,54.2797,-0.4044,5.51,70,95,1.79,GB,1733182764
301,muynoq,43.7683,59.0214,-0.42,78,22,2.36,UZ,1733182880
302,hadibu,12.65,54.0333,24.23,70,25,4.07,YE,1733182882
303,turkmenbasy,40.0222,52.9552,0.43,86,75,4.12,TM,1733182884
304,codrington,-38.2667,141.9667,17.84,87,89,8.58,AU,1733182886
305,freetown,8.484,-13.2299,27.84,74,31,4.12,SL,1733182888
306,vadso,70.0744,29.7487,-0.91,74,75,3.6,NO,1733182891
307,demre,36.2537,29.9777,12.19,76,78,2.52,TR,1733182893
308,sandnessjoen,66.0217,12.6316,0.98,54,100,12.08,NO,1733182895
309,egersund,58.4513,5.9997,4.33,73,53,9.55,NO,1733182897
310,merizo village,13.2658,144.6691,29.43,84,90,8.06,GU,1733182899
311,dudinka,69.4058,86.1778,-14.61,92,99,8.58,RU,1733182904
312,uribia,11.7139,-72.266,28.34,72,98,7.12,CO,1733182906
313,ocean shores,46.9737,-124.1563,6.64,88,20,3.6,US,1733182888
314,mutuali,-14.8706,37.0044,19.49,60,10,1.56,MZ,1733182910
315,bakanas,44.8081,76.2772,2.9,75,100,1.42,KZ,1733182912
316,yigo village,13.5361,144.8886,28.74,83,40,7.72,GU,1733182915
317,kodinsk,58.6881,99.1844,-13.04,96,100,1.78,RU,1733182917
318,galliano,29.4422,-90.2992,13.0,54,0,0.0,US,1733182919
319,whangarei,-35.7317,174.3239,25.13,36,96,2.57,NZ,1733182921
320,mont-laurier,46.5501,-75.4993,-3.0,92,98,1.42,CA,1733182670
321,santander jimenez,24.2167,-98.4667,23.36,73,45,3.76,MX,1733182926
322,kununurra,-15.7667,128.7333,25.99,78,75,5.66,AU,1733182928
323,ugoofaaru,5.6667,73.0,27.88,76,89,7.23,MV,1733182930
324,portoviejo,-1.05,-80.45,26.67,73,15,4.94,EC,1733182677
325,shiyan,32.6475,110.7781,7.81,56,100,0.98,CN,1733182934
326,tsetserleg,47.475,101.4542,-11.57,77,99,1.96,MN,1733182737
327,kasungu,-13.0333,33.4833,18.45,49,1,1.78,MW,1733182938
328,bardai,11.65,7.2333,17.42,24,0,4.19,NG,1733182941
329,boende,-0.2167,20.8667,22.77,83,36,0.9,CD,1733182943
330,burnie,-41.0667,145.9167,16.2,97,100,3.42,AU,1733182945
331,pinotepa nacional,16.3167,-98.0167,23.35,80,72,1.18,MX,1733182947
332,mejit,10.2753,170.8646,27.65,81,48,11.43,MH,1733182949
333,ilebo,-4.3167,20.5833,20.94,97,77,0.37,CD,1733182951
334,port douglas,-16.4833,145.4667,25.93,88,100,1.15,AU,1733182953
335,port-gentil,-0.7193,8.7815,25.98,100,20,2.57,GA,1733182955
336,nar'yan-mar,67.6713,53.087,2.39,98,100,10.49,RU,1733182958
337,puerto madero,14.7208,-92.4215,29.11,61,75,2.57,MX,1733182960
338,houmt el souk,33.8758,10.8575,17.97,59,20,5.14,TN,1733182962
339,geraldton,-28.7667,114.6,18.23,72,0,3.09,AU,1733182964
340,colonia,50.9333,6.95,8.36,88,75,2.57,DE,1733182817
341,conception bay south,47.4999,-52.9981,4.85,95,100,2.84,CA,1733182968
342,sabzevar,36.2126,57.6819,1.49,62,9,2.95,IR,1733182970
343,labasa,-16.4167,179.3833,28.73,76,92,2.96,FJ,1733182973
344,yashkul',46.1711,45.3435,0.38,77,73,5.36,RU,1733182975
345,praia,14.9215,-23.5087,24.3,60,0,5.14,CV,1733182977
346,bogande,12.9714,-0.1436,22.18,20,54,3.66,BF,1733182979
347,dampit,-8.2116,112.7493,24.87,84,93,1.21,ID,1733182981
348,lesneven,48.5723,-4.3213,10.12,81,100,1.54,FR,1733182914
349,labytnangi,66.6572,66.4183,-9.54,96,100,1.8,RU,1733182985
350,guadalupe y calvo,26.1,-106.9667,11.79,26,92,0.9,MX,1733182987
351,piacabucu,-10.4056,-36.4344,25.45,85,35,5.1,BR,1733182990
352,maymana,35.9214,64.7836,2.53,78,81,1.43,AF,1733182992
353,anna regina,7.2644,-58.5077,25.12,89,71,3.56,GY,1733182994
354,hami,42.8,93.45,-2.38,87,98,2.63,CN,1733182996
355,vilyuchinsk,52.9306,158.4028,3.15,89,100,0.51,RU,1733182998
356,quixada,-4.9714,-39.0153,25.72,73,61,3.72,BR,1733183000
357,bayanhongor,46.7167,100.1167,-17.66,82,100,1.23,MN,1733183002
358,santa barbara,34.7333,-120.0343,18.89,38,0,3.09,US,1733182739
359,boguchar,49.9358,40.545,-2.1,92,100,1.8,RU,1733183007
360,vila do maio,15.1333,-23.2167,24.8,70,86,6.08,CV,1733183009
361,enewetak,11.3474,162.3373,27.88,76,89,10.27,MH,1733183011
362,isangel,-19.55,169.2667,28.06,83,20,4.63,VU,1733183013
363,caxito,-8.5785,13.6643,24.42,93,72,0.85,AO,1733183015
364,cooma,-36.2333,149.1333,20.83,72,100,6.76,AU,1733183017
365,primero de mayo,-32.2552,-58.4228,18.79,48,0,3.66,AR,1733183020
366,cuito,-12.3833,16.9333,15.33,83,17,1.77,AO,1733183022
367,laguna,38.421,-121.4238,17.98,53,0,1.54,US,1733183024
368,ancud,-41.8697,-73.8203,10.84,68,60,2.27,CL,1733183026
369,gisborne,-38.6533,178.0042,23.95,53,94,1.77,NZ,1733183028
370,tattayyangarpettai,11.1333,78.45,23.45,90,66,1.23,IN,1733183030
371,anshun,26.25,105.9333,10.9,93,90,2.06,CN,1733183032
372,kirensk,57.7853,108.1119,-33.5,99,7,0.71,RU,1733183034
373,molina,-35.1167,-71.2833,23.85,27,0,4.12,CL,1733182801
374,igarka,67.4667,86.5833,-15.35,96,97,5.79,RU,1733183039
375,kapuskasing,49.4169,-82.4331,-5.95,93,100,8.23,CA,1733182801
376,jose maria morelos,30.8066,-112.684,22.86,21,2,3.47,MX,1733183043
377,daru,-9.0763,143.2092,28.28,78,65,2.48,PG,1733183045
378,afif,23.9065,42.9172,16.83,53,13,4.64,SA,1733183047
379,suva,-18.1416,178.4415,28.71,79,40,3.6,FJ,1733183049
380,dawson creek,55.7666,-120.2362,5.8,65,0,8.23,CA,1733182886
381,namibe,-15.1961,12.1522,20.29,82,34,1.94,AO,1733183054
382,tsiombe,-25.3,45.4833,22.7,93,18,1.75,MG,1733183056
383,meissen,51.1616,13.4737,3.84,81,100,4.44,DE,1733183058
384,tazacorte,28.629,-17.9293,20.64,63,40,4.12,ES,1733183060
385,labrador city,52.9463,-66.9114,-11.05,79,100,5.66,CA,1733183062
386,sahagun,8.9462,-75.4427,25.22,92,95,3.87,CO,1733183064
387,luwuk,-0.9516,122.7875,27.7,68,60,1.09,ID,1733183066
388,bairnsdale,-37.8333,147.6167,26.14,71,100,0.45,AU,1733183068
389,rampur,28.8167,79.0333,14.5,58,0,2.02,IN,1733183071
390,thunder bay,48.4001,-89.3168,-6.01,73,75,3.6,CA,1733183073
391,nanakuli,21.3906,-158.1547,28.91,53,0,2.57,US,1733183075
392,joao pinheiro,-17.7425,-46.1725,21.99,88,87,1.76,BR,1733183079
393,luwingu,-10.2621,29.9271,15.84,88,91,1.26,ZM,1733183081
394,plettenberg bay,-34.0527,23.3716,17.58,72,27,3.58,ZA,1733183084
395,brooks,50.5834,-111.8851,-13.01,72,95,2.57,CA,1733182963
396,pyhajarvi,67.0701,27.2176,-8.54,93,36,1.9,FI,1733183088
397,farmington,36.7281,-108.2187,9.38,31,0,4.12,US,1733183090
398,berdigestyakh,62.0989,126.6992,-29.17,100,97,0.77,RU,1733183093
399,semey,50.4111,80.2275,-8.13,99,80,0.52,KZ,1733183095
400,banswara,23.55,74.45,16.96,38,0,2.23,IN,1733183097
401,lompoc,34.6391,-120.4579,16.62,69,0,4.12,US,1733183099
402,arteche,12.2645,125.4048,27.72,84,100,3.25,PH,1733183102
403,puerto ayacucho,5.6639,-67.6236,29.11,64,62,1.33,VE,1733183104
404,swakopmund,-22.6833,14.5333,14.74,88,20,0.49,NA,1733183106
405,jalalaqsi,3.3766,45.5996,22.48,80,25,4.69,SO,1733183108
406,taunggyi,20.7833,97.0333,14.47,94,5,1.2,MM,1733183110
407,vorgashor,67.5833,63.95,-6.32,95,100,8.87,RU,1733183112
408,novyy urengoy,66.0833,76.6333,-15.06,89,69,5.6,RU,1733183115
409,okhotsk,59.3833,143.3,-3.12,97,100,2.89,RU,1733183117
410,nalut,30.3333,10.85,10.74,59,26,2.96,LY,1733183119
411,tual,-5.6667,132.75,28.38,76,98,4.54,ID,1733183121
412,saint-philippe,-21.3585,55.7679,23.9,83,37,5.27,RE,1733183123
413,notodden,59.5594,9.2585,3.2,76,99,0.45,NO,1733183125
414,mankoeng,-23.9,29.8167,19.07,36,6,2.45,ZA,1733183127
415,belmonte,-15.8631,-38.8828,25.51,80,71,4.77,BR,1733183129
416,lewistown,40.5992,-77.5714,-0.22,82,0,3.6,US,1733182987
417,santa cruz,-17.8,-63.1667,21.03,94,75,3.6,BO,1733183134
418,barcelos,41.5388,-8.6151,10.92,94,60,0.95,PT,1733183136
419,kamyzyak,46.11,48.0736,-2.01,93,100,3.0,RU,1733183138
420,tvoroyri,61.5556,-6.8111,1.34,56,97,4.19,FO,1733183140
421,caruaru,-8.2833,-35.9761,21.74,88,42,3.47,BR,1733183142
422,tamanrasset,22.785,5.5228,13.22,25,39,0.57,DZ,1733183145
423,lindsay,36.203,-119.0882,17.1,73,20,2.57,US,1733183045
424,margate,51.3813,1.3862,7.61,83,98,1.34,GB,1733183149
425,luanco,43.6152,-5.7934,12.54,96,95,1.34,ES,1733183151
426,port augusta,-32.5,137.7667,23.76,56,0,5.77,AU,1733183153
427,aitape,-3.1374,142.3475,29.39,71,87,0.95,PG,1733183155
428,berbera,10.4396,45.0143,25.99,70,38,2.67,SO,1733183157
429,pathankot,32.2833,75.65,13.05,34,2,1.79,IN,1733183159
430,howard springs,-12.497,131.047,25.95,77,100,1.39,AU,1733183162
431,bedesa,8.9,40.7833,15.52,58,5,0.85,ET,1733183166
432,pemangkat,1.1667,108.9667,26.78,82,100,3.29,ID,1733183168
433,arkhangel'sk,64.5401,40.5433,3.06,100,75,5.0,RU,1733183170
434,sanctuary point,-35.1114,150.629,26.4,57,100,1.83,AU,1733183172
435,fale old settlement,-9.3852,-171.2468,28.03,76,46,6.93,TK,1733183174
436,gemena,3.25,19.7667,22.57,54,3,0.64,CD,1733183177
437,sotik post,-0.7813,35.3416,13.86,96,100,0.8,KE,1733182957
438,mandvi,22.8333,69.3667,22.87,37,1,4.9,IN,1733183181
439,arno,60.1167,18.6333,0.59,95,100,8.74,SE,1733183183
440,oranjemund,-28.55,16.4333,16.11,95,19,4.62,NA,1733183187
441,katsuren-haebaru,26.3369,127.8719,22.27,83,75,2.06,JP,1733183189
442,richards bay,-28.783,32.0377,19.89,89,98,1.56,ZA,1733183191
443,shubarshi,48.5872,57.1869,-2.61,79,94,2.12,KZ,1733183194
444,douz,33.4663,9.0203,14.45,54,99,2.83,TN,1733183196
445,juli,-16.2167,-69.45,11.2,70,100,4.61,PE,1733183198
446,gorontalo,0.5412,123.0595,28.53,73,76,1.21,ID,1733183200
447,alesund,62.4723,6.1549,2.64,53,100,6.69,NO,1733183202
448,ambon,-3.6954,128.1814,30.08,74,40,2.06,ID,1733183204
449,quartu sant'elena,39.2419,9.1839,12.22,89,20,1.54,IT,1733183206
450,marathon,44.9,-89.7668,-2.26,75,100,5.14,US,1733183209
451,taoudenni,22.6783,-3.9836,20.66,18,100,5.34,ML,1733183211
452,nhamunda,-2.1861,-56.7131,27.39,66,72,1.01,BR,1733183213
453,bikenibeu village,1.3673,173.1241,31.98,62,20,5.66,KI,1733183215
454,fort st. john,56.2499,-120.8529,-0.06,86,75,6.17,CA,1733182966
455,ayr,55.4627,-4.6339,-0.28,93,0,2.57,GB,1733183219
456,yerofey pavlovich,53.9667,121.9667,-20.09,89,100,1.88,RU,1733183221
457,valderice,38.0401,12.6151,10.5,87,40,2.06,IT,1733183224
458,paredon,16.0333,-93.8667,27.95,60,7,6.7,MX,1733183226
459,hamilton,39.1834,-84.5333,-1.79,80,100,4.63,US,1733183180
460,valerik,43.1797,45.4081,1.33,84,74,0.75,RU,1733183230
461,pacifica,37.6138,-122.4869,18.77,47,20,2.24,US,1733183160
462,xuddur,4.1213,43.8894,21.05,57,6,5.53,SO,1733183234
463,sola,-13.8833,167.55,26.85,71,99,1.0,VU,1733183237
464,al badari,26.9926,31.4155,13.64,62,3,4.19,EG,1733183239
465,lata,40.1629,-8.3327,9.64,98,72,0.51,PT,1733183241
466,ghat,24.9647,10.1728,14.52,26,84,0.64,LY,1733183243
467,al bukayriyah,26.1442,43.6593,12.87,46,0,4.84,SA,1733183245
468,alotau,-10.3069,150.4462,30.91,66,86,2.21,PG,1733183248
469,eirunepe,-6.6603,-69.8736,28.29,60,95,1.74,BR,1733183250
470,dunedin,-45.8742,170.5036,19.33,84,97,1.79,NZ,1733183254
471,el granada,37.5027,-122.4694,18.9,49,20,1.54,US,1733183256
472,panuco,22.05,-98.1667,23.51,81,55,3.22,MX,1733183261
473,waddan,29.1614,16.139,12.3,50,81,1.93,LY,1733183263
474,ust'-ilimsk,58.0006,102.6619,-17.56,97,100,2.17,RU,1733183265
475,yinchuan,38.4681,106.2731,-1.15,36,2,0.22,CN,1733183267
476,gamboru,12.3707,14.2173,21.4,56,29,4.14,NG,1733183269
477,iwaki,37.05,140.8833,13.38,68,19,1.33,JP,1733183271
478,andirin,37.5776,36.3549,2.47,46,13,3.3,TR,1733183273
479,tafuna,-14.3358,-170.72,30.97,74,40,5.14,AS,1733183276
480,acarau,-2.8856,-40.12,26.32,80,38,5.27,BR,1733183278
481,port macquarie,-31.4333,152.9167,26.15,82,100,4.47,AU,1733183280
482,vernon,50.2581,-119.2691,3.2,74,38,1.54,CA,1733183282
483,sal rei,16.1833,-22.9167,24.84,60,71,6.44,CV,1733183286
484,gaillimh,53.2719,-9.0489,4.63,77,63,3.25,IE,1733183291
485,dul'durga,50.6761,113.5931,-21.24,94,17,1.97,RU,1733183293
486,buala,-8.145,159.5921,30.32,60,49,1.29,SB,1733183295
487,patong,7.8961,98.2966,24.08,84,64,1.92,TH,1733183297
488,ciudad lazaro cardenas,17.9583,-102.2,26.49,74,2,2.28,MX,1733183299
489,kwang binh,17.4833,106.6,22.39,87,100,0.76,VN,1733183301
490,angaur state,6.906,134.13,29.09,70,24,7.04,PW,1733183303
491,cadillac,44.2519,-85.4012,-2.05,93,75,2.06,US,1733183247
492,susuman,62.7833,148.1667,-21.0,100,97,0.18,RU,1733183308
493,birobidzhan,48.8,132.95,-22.03,89,20,1.61,RU,1733183310
494,high rock,26.6208,-78.2833,21.17,56,6,8.62,BS,1733183312
495,chegdomyn,51.1167,133.0167,-18.99,91,100,1.96,RU,1733183314
496,ohara,35.25,140.3833,14.58,68,0,3.99,JP,1733183316
497,la gi,10.6667,107.7833,25.44,83,97,2.51,VN,1733183318
498,markovo,57.3206,107.0881,-33.2,99,7,1.29,RU,1733183320
499,champerico,14.3,-91.9167,27.35,65,96,1.24,GT,1733183322
500,kincardine,56.0667,-3.7167,3.15,84,98,1.67,GB,1733183325
501,miles city,46.4083,-105.8406,-2.46,54,0,1.54,US,1733183327
502,oxapampa,-10.5775,-75.4017,16.0,99,100,0.95,PE,1733183329
503,cobram,-35.9167,145.65,26.84,62,84,9.15,AU,1733183331
504,page,36.9147,-111.4558,7.29,50,17,1.79,US,1733183333
505,rio gallegos,-51.6226,-69.2181,12.03,47,75,11.83,AR,1733183335
506,aginskoye,51.1,114.53,-20.1,86,59,5.03,RU,1733183338
507,abuja,9.0574,7.4898,22.08,33,4,1.25,NG,1733183340
508,middelkerke,51.1558,2.8418,9.01,91,75,7.2,BE,1733183342
509,santa eularia des riu,38.9846,1.5341,11.95,94,20,0.51,ES,1733183344
510,ma'ili,21.4219,-158.1803,29.5,52,0,2.57,US,1733183346
511,usogorsk,63.4106,48.6872,0.62,87,99,5.65,RU,1733183348
512,nantucket,41.2835,-70.0995,1.06,55,0,3.6,US,1733183350
513,udachny,66.4167,112.4,-29.58,84,19,2.76,RU,1733183353
514,porto novo,6.4965,2.6036,27.9,81,0,3.09,BJ,1733183355
515,siwa oasis,29.2041,25.5195,13.8,53,24,3.64,EG,1733183357
516,placido de castro,-10.3353,-67.1856,28.93,58,97,1.28,BR,1733183361
517,ghanzi,-21.5667,21.7833,25.29,23,40,3.14,BW,1733183363
518,argostolion,38.1811,20.489,13.19,65,14,2.2,GR,1733183229
519,iskateley,67.6803,53.1512,2.38,98,100,10.4,RU,1733183368
520,salto de pirapora,-23.6489,-47.5733,22.7,93,96,0.41,BR,1733183370
521,la sarre,48.8002,-79.1996,-6.29,97,94,2.39,CA,1733183372
522,wanlaweyn,2.6185,44.8938,22.93,78,8,3.54,SO,1733183374
523,freren,52.4833,7.55,6.68,92,43,5.64,DE,1733183376
524,kempsey,-31.0833,152.8333,28.3,77,100,1.79,AU,1733183380
525,ceeldheer,3.8488,47.1806,25.29,71,53,6.86,SO,1733183383
526,darwin,-12.4611,130.8418,25.99,94,75,1.03,AU,1733183385
527,mana,5.6592,-53.7767,25.3,90,68,5.12,GF,1733183387
528,itoman,26.1247,127.6694,22.27,73,20,4.63,JP,1733183389
529,karkira,36.9292,6.5856,13.73,78,100,2.73,DZ,1733183391
530,sovetskaya gavan',48.9723,140.2878,-9.44,62,100,8.04,RU,1733183393
531,santa rosa de rio primero,-31.1523,-63.4019,18.99,43,0,3.29,AR,1733183396
532,bandon,51.7469,-8.7425,5.77,73,97,0.88,IE,1733183398
533,bodo,67.28,14.405,0.02,71,75,11.83,NO,1733183400
534,guanare,9.0418,-69.7421,25.38,73,91,1.95,VE,1733183402
535,conceicao da barra,-18.5933,-39.7322,25.57,78,89,5.46,BR,1733183404
536,inhambane,-23.865,35.3833,23.27,75,0,4.19,MZ,1733183406
537,upata,8.0086,-62.3989,24.59,75,90,3.33,VE,1733183310
538,les avirons,-21.2418,55.3394,22.05,64,0,3.09,RE,1733183411
539,annau,37.8876,58.516,0.72,100,20,2.06,TM,1733183413
540,youhao,47.8667,128.8333,-23.46,90,70,1.44,CN,1733183415
541,bamboo flat,11.7,92.7167,25.05,88,20,1.03,IN,1733183417
542,cariamanga,-4.3333,-79.55,15.76,69,91,1.73,EC,1733183421
543,mont-dore,-22.2833,166.5833,30.0,59,17,5.28,NC,1733183424
544,karaton,-6.3424,106.1045,23.49,96,100,2.01,ID,1733183426
545,xining,36.6167,101.7667,-9.34,86,5,2.29,CN,1733183428
546,singkil,-7.9855,111.4161,26.54,80,100,2.57,ID,1733183430
547,brokopondo,4.75,-55.1667,25.47,86,100,5.46,SR,1733183432
548,sao vicente,-23.9631,-46.3919,24.99,26,100,2.47,BR,1733183434
549,sukumo,32.9333,132.7333,14.96,66,0,1.42,JP,1733183436
550,north platte,41.1239,-100.7654,-4.06,59,0,2.57,US,1733183318
551,akrehamn,59.2667,5.1833,4.14,65,7,15.95,NO,1733183441
552,enoch,37.7733,-113.0244,7.14,50,0,1.54,US,1733183443
553,mariental,-24.6333,17.9667,23.21,16,75,3.95,NA,1733183445
554,vrontados,38.4089,26.1328,12.1,84,100,3.23,GR,1733183447
555,vorkuta,67.5,64.0,-6.5,95,100,8.78,RU,1733183449
556,scottburgh,-30.2867,30.7532,19.24,88,76,2.62,ZA,1733183451
557,dakhla,23.6848,-15.958,21.05,58,1,6.03,EH,1733183453
558,berezovyy,51.6667,135.7,-11.93,94,100,1.73,RU,1733183456
559,mazyr,52.0495,29.2456,-0.72,93,6,3.3,BY,1733183458
560,mogadishu,2.0371,45.3438,25.99,73,29,7.51,SO,1733183189
561,severo-yeniseyskiy,60.3725,93.0408,-13.14,95,100,2.77,RU,1733183462
562,bodden town,19.2833,-81.25,26.0,80,20,5.66,KY,1733183464
563,opuwo,-18.0607,13.84,22.03,23,0,2.27,NA,1733183466
564,mkushi,-13.6202,29.3939,17.47,35,1,2.51,ZM,1733183469
565,bat khela,34.6167,71.9714,11.31,47,18,2.62,PK,1733183471
566,phibun mangsahan,15.2447,105.2291,21.39,83,95,1.58,TH,1733183473
567,inyonga,-6.7167,32.0667,17.62,94,79,0.13,TZ,1733183475
568,n'dalatando,-9.2978,14.9116,20.48,99,78,0.93,AO,1733183477
569,mandalgovi,45.7625,106.2708,-10.65,67,22,2.37,MN,1733183479
570,hovd,48.0056,91.6419,-11.0,79,24,2.11,MN,1733183488
571,funafuti,-8.5243,179.1942,32.0,74,20,4.12,TV,1733183490
572,inirida,3.8653,-67.9239,27.0,75,83,1.47,CO,1733183492
573,owen sound,44.5672,-80.9435,0.21,95,62,1.83,CA,1733183404
574,antofagasta,-23.65,-70.4,16.6,81,100,2.81,CL,1733183317
575,natal,-5.795,-35.2094,27.12,78,75,7.72,BR,1733183432
576,madikeri,12.4167,75.7333,19.34,100,100,1.28,IN,1733183391
577,shimanovsk,52.0,127.7,-29.57,100,98,1.7,RU,1733183503
578,cruzilia,-21.8386,-44.8083,20.32,93,96,1.13,BR,1733183505
579,sen monorom,12.45,107.2,20.7,79,93,4.0,KH,1733183507
580,lucena,13.9314,121.6172,25.76,94,100,2.75,PH,1733183509
581,sucua,-2.4667,-78.1667,26.41,61,20,3.6,EC,1733183511
